[{"town":"引佐町井伊谷","koaza":"","lat":34.834189,"lng":137.675266},{"town":"引佐町伊平","koaza":"","lat":34.862679,"lng":137.660968},{"town":"引佐町奥山","koaza":"","lat":34.841817,"lng":137.616824},{"town":"引佐町金指","koaza":"","lat":34.823236,"lng":137.680654},{"town":"引佐町狩宿","koaza":"","lat":34.863584,"lng":137.607754},{"town":"引佐町川名","koaza":"","lat":34.872659,"lng":137.698655},{"town":"引佐町黒渕","koaza":"","lat":34.834797,"lng":137.654568},{"town":"引佐町渋川","koaza":"","lat":34.935788,"lng":137.677725},{"town":"引佐町四方浄","koaza":"","lat":34.890332,"lng":137.667096},{"town":"引佐町白岩","koaza":"","lat":34.840095,"lng":137.662366},{"town":"引佐町田沢","koaza":"","lat":34.906587,"lng":137.652328},{"town":"引佐町田畑","koaza":"","lat":34.846204,"lng":137.649283},{"town":"引佐町栃窪","koaza":"","lat":34.835381,"lng":137.647792},{"town":"引佐町兎荷","koaza":"","lat":34.853387,"lng":137.679234},{"town":"引佐町西久留女木","koaza":"","lat":34.909106,"lng":137.700193},{"town":"引佐町西黒田","koaza":"","lat":34.87229,"lng":137.641988},{"town":"引佐町花平","koaza":"","lat":34.847534,"lng":137.669044},{"town":"引佐町東久留女木","koaza":"","lat":34.890114,"lng":137.727954},{"town":"引佐町東黒田","koaza":"","lat":34.880117,"lng":137.647396},{"town":"引佐町別所","koaza":"","lat":34.895946,"lng":137.683209},{"town":"引佐町的場","koaza":"","lat":34.88925,"lng":137.647584},{"town":"引佐町三岳","koaza":"","lat":34.84166,"lng":137.694576},{"town":"引佐町谷沢","koaza":"","lat":34.867564,"lng":137.629776},{"town":"引佐町横尾","koaza":"","lat":34.836216,"lng":137.660305},{"town":"新都田一丁目","koaza":"","lat":34.821565,"lng":137.73109},{"town":"新都田二丁目","koaza":"","lat":34.815297,"lng":137.736715},{"town":"新都田三丁目","koaza":"","lat":34.818975,"lng":137.736585},{"town":"新都田四丁目","koaza":"","lat":34.811952,"lng":137.743341},{"town":"新都田五丁目","koaza":"","lat":34.818781,"lng":137.741946},{"town":"神宮寺町","koaza":"","lat":34.83119,"lng":137.669827},{"town":"滝沢町","koaza":"","lat":34.8606,"lng":137.725599},{"town":"細江町小野","koaza":"","lat":34.820959,"lng":137.651263},{"town":"細江町気賀","koaza":"","lat":34.802846,"lng":137.632557},{"town":"細江町中川","koaza":"","lat":34.806941,"lng":137.67839},{"town":"細江町広岡","koaza":"","lat":34.810371,"lng":137.659787},{"town":"細江町三和","koaza":"","lat":34.824039,"lng":137.689411},{"town":"三ヶ日町宇志","koaza":"","lat":34.807091,"lng":137.566445},{"town":"三ヶ日町大崎","koaza":"","lat":34.773128,"lng":137.565202},{"town":"三ヶ日町大谷","koaza":"","lat":34.811633,"lng":137.590492},{"town":"三ヶ日町岡本","koaza":"","lat":34.813468,"lng":137.544533},{"town":"三ヶ日町上尾奈","koaza":"","lat":34.782129,"lng":137.513793},{"town":"三ヶ日町駒場","koaza":"","lat":34.8002,"lng":137.581488},{"town":"三ヶ日町佐久米","koaza":"","lat":34.791481,"lng":137.600089},{"town":"三ヶ日町下尾奈","koaza":"","lat":34.782409,"lng":137.536509},{"town":"三ヶ日町只木","koaza":"","lat":34.834387,"lng":137.575608},{"town":"三ヶ日町都筑","koaza":"","lat":34.790767,"lng":137.580831},{"town":"三ヶ日町津々崎","koaza":"","lat":34.800029,"lng":137.57252},{"town":"三ヶ日町釣","koaza":"","lat":34.810065,"lng":137.533912},{"town":"三ヶ日町鵺代","koaza":"","lat":34.798065,"lng":137.5427},{"town":"三ヶ日町日比沢","koaza":"","lat":34.80284,"lng":137.529896},{"town":"三ヶ日町平山","koaza":"","lat":34.829211,"lng":137.517446},{"town":"三ヶ日町福長","koaza":"","lat":34.83477,"lng":137.547618},{"town":"三ヶ日町本坂","koaza":"","lat":34.805237,"lng":137.505781},{"town":"三ヶ日町摩訶耶","koaza":"","lat":34.818497,"lng":137.558003},{"town":"三ヶ日町三ヶ日","koaza":"","lat":34.806661,"lng":137.548762},{"town":"三ヶ日町三ヶ日","koaza":"大苗代","lat":34.810689,"lng":137.549384},{"town":"都田町","koaza":"","lat":34.824631,"lng":137.718001},{"town":"鷲沢町","koaza":"","lat":34.846124,"lng":137.715038},{"town":"三大地","koaza":"","lat":34.882646,"lng":137.747362},{"town":"油一色","koaza":"","lat":34.802688,"lng":137.807165},{"town":"内野","koaza":"","lat":34.784856,"lng":137.756818},{"town":"内野台一丁目","koaza":"","lat":34.783552,"lng":137.74947},{"town":"内野台二丁目","koaza":"","lat":34.78649,"lng":137.74922},{"town":"内野台三丁目","koaza":"","lat":34.789414,"lng":137.749547},{"town":"内野台四丁目","koaza":"","lat":34.790825,"lng":137.752657},{"town":"大平","koaza":"","lat":34.852639,"lng":137.741012},{"town":"尾野","koaza":"","lat":34.837537,"lng":137.777343},{"town":"於呂","koaza":"","lat":34.836627,"lng":137.798687},{"town":"上島","koaza":"","lat":34.84701,"lng":137.817953},{"town":"上善地","koaza":"","lat":34.797933,"lng":137.809219},{"town":"貴布祢","koaza":"","lat":34.795467,"lng":137.782887},{"town":"小林","koaza":"","lat":34.804748,"lng":137.785694},{"town":"小松","koaza":"","lat":34.788467,"lng":137.772014},{"town":"新原","koaza":"","lat":34.814849,"lng":137.782735},{"town":"善地","koaza":"","lat":34.789577,"lng":137.807864},{"town":"染地台一丁目","koaza":"","lat":34.784171,"lng":137.744492},{"town":"染地台二丁目","koaza":"","lat":34.789106,"lng":137.739028},{"town":"染地台三丁目","koaza":"","lat":34.790166,"lng":137.743505},{"town":"染地台四丁目","koaza":"","lat":34.790665,"lng":137.746631},{"town":"染地台五丁目","koaza":"","lat":34.792429,"lng":137.749694},{"town":"染地台六丁目","koaza":"","lat":34.797429,"lng":137.745963},{"town":"高薗","koaza":"","lat":34.787395,"lng":137.819735},{"town":"高畑","koaza":"","lat":34.793241,"lng":137.79807},{"town":"寺島","koaza":"","lat":34.781775,"lng":137.793647},{"town":"豊保","koaza":"","lat":34.826113,"lng":137.804187},{"town":"道本","koaza":"","lat":34.803392,"lng":137.790789},{"town":"中条","koaza":"","lat":34.783016,"lng":137.78261},{"town":"中瀬","koaza":"","lat":34.828582,"lng":137.816495},{"town":"永島","koaza":"","lat":34.807633,"lng":137.815897},{"town":"新野","koaza":"","lat":34.780234,"lng":137.816242},{"town":"新堀","koaza":"","lat":34.794008,"lng":137.815263},{"town":"西美薗","koaza":"","lat":34.801351,"lng":137.795885},{"town":"沼","koaza":"","lat":34.792396,"lng":137.786861},{"town":"根堅","koaza":"","lat":34.843416,"lng":137.791216},{"town":"灰木","koaza":"","lat":34.845698,"lng":137.758955},{"town":"東美薗","koaza":"","lat":34.796206,"lng":137.803507},{"town":"平口","koaza":"","lat":34.799557,"lng":137.76153},{"town":"堀谷","koaza":"","lat":34.868401,"lng":137.761268},{"town":"本沢合","koaza":"","lat":34.812159,"lng":137.799059},{"town":"宮口","koaza":"","lat":34.827024,"lng":137.768048},{"town":"八幡","koaza":"","lat":34.799149,"lng":137.817422},{"town":"横須賀","koaza":"","lat":34.788834,"lng":137.787366},{"town":"四大地","koaza":"","lat":34.854755,"lng":137.757449},{"town":"竜南","koaza":"","lat":34.782348,"lng":137.81876}]